time,accel_x,accel_y,accel_z,gyro_p,gyro_q,gyro_r,pos_x,pos_y,pos_z,vel_x,vel_y,vel_z,att_phi,att_theta,att_psi,rate_p,rate_q,rate_r,OF_time,flow_x, flow_y,flow_der_x, flow_der_y, div_size, div,noise, fps,cmd_thrust,cmd_roll,cmd_pitch,cmd_yaw,rpm1_abi,rpm2_abi,rpm3_abi,rpm4_abi,num_act,body_vel_x,body_vel_y,body_vel_z,motor_comm_1,motor_comm_2,motor_comm_3,motor_comm_4
62.312080,5238,12230,-11163,-10483,-237,-1983,0.109375,0.476562,-1.578125,0.000000,0.000000,0.009998,-0.075928,-0.002930,-0.577393,-2.510498,0.031494,-0.523926,0,0,0,0,0,0.000000,0.006336,0.000000,0.000000,5478,726,194,640,0,0,0,0,0,0.000029,-0.000760,0.009968,6448,4781,5147,5534
62.321846,779,10033,-13540,6693,37,448,0.109375,0.476562,-1.578125,0.039999,0.000000,-0.009998,-0.065918,-0.002197,-0.575439,1.682861,0.098389,0.069580,0,0,0,0,0,0.000000,-0.006336,0.000000,0.000000,5461,-499,173,496,8413,7745,8002,7539,4,0.033533,0.022382,-0.008623,5478,5688,5939,4737
62.331596,-3754,-10903,-15615,7741,-438,2295,0.109375,0.476562,-1.578125,0.039999,0.000000,-0.009998,-0.070801,-0.002686,-0.575684,1.938721,-0.017578,0.520508,62324006,2,-1,25,0,0.000190,-0.006336,0.250000,0.000000,5463,-536,243,539,8369,7800,8043,7454,4,0.033518,0.022436,-0.008527,5525,5744,5939,4642
62.341370,-1952,-5191,-15298,-8219,-472,-427,0.109375,0.476562,-1.578125,0.039999,0.000000,-0.009998,-0.078613,-0.002930,-0.577148,-1.957764,-0.025879,-0.144043,62337680,0,0,8,0,-0.000068,-0.006336,0.250000,76.923073,5466,576,246,622,8307,7824,8109,7435,4,0.033492,0.022550,-0.008359,6358,4921,5195,5388
62.351143,3553,18062,-10342,-6617,-429,-2231,0.109375,0.476562,-1.578125,0.039999,0.000000,-0.009998,-0.070068,-0.002930,-0.576172,-1.566650,-0.015381,-0.584473,62351460,3,0,-4,1,0.000635,-0.006336,0.250000,76.923073,5462,415,240,544,8349,7803,8038,7435,4,0.033509,0.022446,-0.008550,6197,5066,5270,5313
62.360897,1201,3879,-7541,7981,-139,1761,0.109375,0.476562,-1.578125,-0.009998,0.019999,0.000000,-0.067139,-0.002441,-0.574463,1.997314,0.055420,0.390137,62351460,3,0,-4,1,0.000635,0.000000,0.250000,76.923073,5468,-573,164,444,8358,7800,8037,7463,4,-0.019262,0.011324,0.000812,5400,5767,5979,4724
62.370667,-2979,-22531,-12470,3548,-396,1852,0.109375,0.476562,-1.578125,-0.009998,0.019999,0.000000,-0.075684,-0.002197,-0.576172,0.915039,-0.007324,0.412354,62364968,1,0,-2,0,0.000295,0.000000,0.250000,76.923073,5473,-226,195,534,8280,7790,8058,7499,4,-0.019278,0.011285,0.000898,5718,5503,5761,4908
62.380432,-343,1304,-14057,-8676,-265,-1423,0.109375,0.476562,-1.578125,-0.009998,0.019999,0.000000,-0.073730,-0.002197,-0.576172,-2.069336,0.024658,-0.387207,62376723,-1,0,-19,-1,-0.000078,0.000000,0.250000,90.909088,5471,578,179,538,8238,7811,8092,7511,4,-0.019281,0.011283,0.000880,6275,4919,5204,5484
62.390190,-1064,18190,-10565,-54,-54,-945,0.109375,0.476562,-1.578125,0.019999,0.009998,0.000000,-0.065430,-0.001953,-0.574707,0.035645,0.076172,-0.270508,62376723,-1,0,-19,-1,-0.000078,0.000000,0.250000,90.909088,5468,-48,169,444,8269,7784,8032,7532,4,0.011347,0.019225,0.001238,5775,5399,5604,5092
62.399956,-1446,-9331,-13057,9077,-669,2077,0.109375,0.476562,-1.578125,0.019999,0.009998,0.000000,-0.069092,-0.002197,-0.574707,2.264893,-0.073975,0.467285,62392306,1,0,8,0,-0.000590,0.000000,0.250000,66.666672,5469,-636,257,439,8317,7819,8020,7535,4,0.011348,0.019218,0.001304,5420,5880,5956,4618
62.409729,1689,-17162,-12169,-1161,-276,780,0.109375,0.476562,-1.578125,0.019999,0.009998,0.000000,-0.073730,-0.002441,-0.576660,-0.234619,0.021973,0.150635,62404037,2,0,14,0,0.000277,0.000000,0.250000,90.909088,5471,73,204,563,8246,7818,8020,7529,4,0.011309,0.019235,0.001392,5948,5282,5556,5096
62.419502,-517,15941,-9265,-8369,-115,-2077,0.109375,0.476562,-1.578125,0.019999,0.009998,0.000000,-0.068359,-0.002197,-0.576172,-1.994385,0.061279,-0.546875,62417769,-1,0,-3,0,0.000100,0.000000,0.250000,76.923073,5468,525,182,537,8259,7855,8042,7459,4,0.011319,0.019239,0.001289,6236,4956,5236,5442
62.429256,-2903,7134,-8524,5374,-224,680,0.109375,0.476562,-1.578125,0.000000,0.019999,0.019999,-0.063232,-0.001709,-0.574707,1.360840,0.034668,0.126221,62417769,-1,0,-3,0,0.000100,0.012672,0.250000,76.923073,5480,-424,178,435,8284,7794,7982,7524,4,-0.010834,0.015482,0.021037,5523,5688,5871,4836
62.439018,559,-22548,-7941,5871,-717,2369,0.109375,0.476562,-1.578125,0.000000,0.019999,0.019999,-0.071045,-0.001953,-0.575684,1.482178,-0.085693,0.538574,62432113,-2,0,-18,0,-0.000675,0.012672,0.250000,71.428566,5483,-423,247,489,8287,7806,8059,7511,4,-0.010848,0.015309,0.021158,5603,5712,5851,4764
62.448795,3511,-1088,-15095,-8190,296,-1174,0.109375,0.476562,-1.578125,0.000000,0.019999,0.019999,-0.074463,-0.001465,-0.577148,-1.950684,0.161621,-0.326416,62444996,3,0,-7,-1,0.000640,0.012672,0.250000,83.333336,5484,539,103,567,8253,7910,8117,7483,4,-0.010883,0.015221,0.021207,6221,4892,5313,5508
62.458565,-3651,21351,-7602,-3914,-191,-1078,0.109375,0.476562,-1.578125,0.000000,0.009998,0.019999,-0.068604,-0.001221,-0.575439,-0.906738,0.042725,-0.302979,62458703,0,0,19,0,-0.000012,0.012672,0.250000,76.923073,5482,222,169,467,8289,7809,8052,7536,4,-0.005418,0.006991,0.020534,5991,5211,5439,5285
62.468315,-1498,-9559,-13025,8310,-298,1979,0.109375,0.476562,-1.578125,0.000000,0.009998,0.019999,-0.070068,-0.000977,-0.575195,2.077637,0.016602,0.443359,62458703,0,0,19,0,-0.000012,0.012672,0.250000,76.923073,5482,-589,182,442,8303,7747,8019,7578,4,-0.005420,0.006963,0.020543,5415,5806,5990,4715
62.478081,-380,-12245,-14751,-7347,-490,-529,0.109375,0.476562,-1.578125,0.000000,0.009998,0.019999,-0.079834,-0.001221,-0.577148,-1.744873,-0.030273,-0.168945,62470528,1,0,14,-1,0.000545,0.012672,0.250000,90.909088,5487,522,208,616,8270,7791,8055,7567,4,-0.005432,0.006752,0.020609,6311,4956,5278,5401
62.487858,-416,14067,-8203,-2981,-527,-1830,0.109375,0.476562,-1.578125,0.029999,0.000000,0.009998,-0.072998,-0.000977,-0.576416,-0.678955,-0.039307,-0.486572,62486694,-7,0,-5,0,-0.000178,0.006336,0.250000,62.499996,5477,185,231,638,8300,7770,8016,7563,4,0.025159,0.015582,0.011136,6090,5190,5501,5125
62.497616,517,7198,-8027,4727,8,520,0.109375,0.476562,-1.578125,0.029999,0.000000,0.009998,-0.072021,-0.000732,-0.575684,1.202881,0.091309,0.087158,62486694,-7,0,-5,0,-0.000178,0.006336,0.250000,62.499996,5476,-357,157,542,8371,7739,8024,7558,4,0.025170,0.015572,0.011126,5605,5568,5888,4841
62.507381,-2624,-13510,-17049,7719,-178,2462,0.109375,0.476562,-1.578125,0.029999,0.000000,0.009998,-0.078125,-0.001221,-0.576660,1.933350,0.045898,0.561279,62499763,-2,0,-25,-1,-0.000125,0.006336,0.250000,76.923073,5479,-519,186,607,8329,7756,8054,7522,4,0.025157,0.015527,0.011212,5547,5673,6017,4677
62.517151,-2759,954,-14668,-8068,-854,-756,0.109375,0.476562,-1.578125,0.029999,0.000000,0.009998,-0.083252,-0.001465,-0.577148,-1.920898,-0.119141,-0.224365,62513406,-6,0,10,0,-0.000559,0.006336,0.250000,76.923073,5481,569,278,655,8375,7759,8085,7468,4,0.025151,0.015485,0.011287,6407,4947,5209,5359
62.526943,1442,18403,-5633,-5838,-475,-1767,0.109375,0.476562,-1.578125,0.000000,0.000000,0.000000,-0.074463,-0.001221,-0.575684,-1.376465,-0.026611,-0.471191,62527119,3,0,12,0,0.000195,0.000000,0.250000,76.923073,5470,370,209,557,8393,7755,8072,7501,4,0.000000,0.000000,0.000000,6157,5077,5339,5305
62.536690,1476,-2106,-3222,7828,-217,2064,0.109375,0.476562,-1.578125,0.000000,0.000000,0.000000,-0.074951,-0.000977,-0.574219,1.959961,0.036377,0.464111,62527119,3,0,12,0,0.000195,0.000000,0.250000,76.923073,5471,-541,175,451,8384,7729,8039,7522,4,0.000000,0.000000,0.000000,5437,5751,5955,4739
62.546440,-4017,-16883,-13314,2890,-575,1512,0.109375,0.476562,-1.578125,0.000000,0.000000,0.000000,-0.084961,-0.001221,-0.575928,0.754395,-0.051025,0.329346,62540830,-3,0,9,0,0.000187,0.000000,0.250000,76.923073,5476,-154,224,544,8308,7813,8067,7501,4,0.000000,0.000000,0.000000,5797,5471,5698,4936
62.556210,-1211,9510,-9052,-10237,-799,-1843,0.109375,0.476562,-1.578125,0.019999,0.019999,0.009998,-0.081299,-0.001953,-0.575928,-2.450439,-0.105713,-0.489746,62554431,-4,0,-12,-1,-0.000089,0.006336,0.250000,76.923073,5479,693,265,566,8318,7802,8048,7487,4,0.005896,0.026761,0.012197,6439,4893,5084,5498
62.565971,1768,10256,-8596,1475,-71,-573,0.109375,0.476562,-1.578125,0.019999,0.019999,0.009998,-0.075195,-0.001709,-0.574219,0.408936,0.072021,-0.179688,62554431,-4,0,-12,-1,-0.000089,0.006336,0.250000,76.923073,5477,-124,166,462,8342,7790,8011,7544,4,0.005940,0.026824,0.012032,5737,5451,5678,5040
62.575737,1459,-7605,-12681,8957,-433,2515,0.109375,0.476562,-1.578125,0.019999,0.019999,0.009998,-0.079346,-0.001953,-0.574219,2.235596,-0.016357,0.574219,62568087,-7,0,-21,0,0.000007,0.006336,0.250000,76.923073,5478,-594,216,465,8335,7799,7978,7559,4,0.005944,0.026775,0.012147,5443,5818,5977,4672
62.585506,-1626,-12892,-14266,-5821,-278,-156,0.109375,0.476562,-1.578125,0.019999,0.019999,0.009998,-0.084961,-0.002197,-0.576416,-1.372314,0.021484,-0.077881,62581755,3,0,18,1,0.000011,0.006336,0.250000,76.923073,5481,427,197,593,8294,7832,8019,7523,4,0.005889,0.026716,0.012296,6218,5021,5336,5347
62.595291,833,11352,-8691,-7685,-514,-1835,0.109375,0.476562,-1.578125,-0.009998,0.000000,0.009998,-0.080322,-0.002441,-0.575439,-1.827393,-0.036133,-0.487793,62595430,-1,0,9,0,0.000108,0.006336,0.250000,76.923073,5479,536,221,531,8301,7797,7996,7529,4,-0.008362,-0.006228,0.009550,6279,4990,5209,5436
62.605034,2244,3612,-8564,7748,-213,991,0.109375,0.476562,-1.578125,-0.009998,0.000000,0.009998,-0.074219,-0.002197,-0.573975,1.940430,0.037354,0.202148,62595430,-1,0,9,0,0.000108,0.006336,0.250000,76.923073,5476,-529,179,438,8389,7767,7998,7529,4,-0.008373,-0.006158,0.009586,5447,5757,5942,4756
62.614799,-711,-15715,-10214,3788,-590,1691,0.109375,0.476562,-1.578125,-0.009998,0.000000,0.009998,-0.082275,-0.002686,-0.575439,0.973633,-0.054688,0.373047,62609131,1,-1,2,0,0.000121,0.006336,0.250000,76.923073,5480,-217,234,516,8333,7778,8015,7554,4,-0.008360,-0.006248,0.009540,5750,5540,5725,4903
62.624580,1778,-3195,-9962,-8757,-379,-1089,0.109375,0.476562,-1.578125,0.000000,0.049999,0.009998,-0.084961,-0.002686,-0.576416,-2.089111,-0.003174,-0.305664,62620774,-1,0,-1,0,-0.000025,0.006336,0.250000,90.909088,5481,623,192,576,8331,7837,7993,7526,4,-0.027230,0.040907,0.013599,6345,4888,5192,5497
62.634342,-1451,16350,-8500,-823,-239,-1401,0.109375,0.476562,-1.578125,0.000000,0.049999,0.009998,-0.075195,-0.002686,-0.575195,-0.152100,0.031006,-0.381836,62634439,3,0,-20,0,-0.000606,0.006336,0.250000,76.923073,5477,34,174,495,8301,7790,8022,7529,4,-0.027179,0.041072,0.013195,5871,5328,5577,5130
62.644096,-2619,1363,-3779,6654,-551,1619,0.109375,0.476562,-1.578125,0.000000,0.049999,0.009998,-0.075684,-0.002930,-0.574707,1.673340,-0.045166,0.355469,62634439,3,0,-20,0,-0.000606,0.006336,0.250000,76.923073,5477,-456,220,475,8350,7774,8015,7514,4,-0.027158,0.041073,0.013222,5547,5717,5881,4761
62.653870,2101,-15563,-8539,-996,-810,1107,0.109375,0.476562,-1.578125,0.019999,-0.019999,0.009998,-0.083496,-0.003418,-0.576416,-0.194336,-0.108398,0.230469,62648131,0,0,7,0,-0.000010,0.006336,0.250000,76.923073,5480,119,292,569,8291,7834,8044,7531,4,0.027701,-0.006673,0.009376,6055,5317,5473,5073
62.663635,6342,7315,-9758,-7196,-117,-1861,0.109375,0.476562,-1.578125,0.019999,-0.019999,0.009998,-0.078369,-0.003662,-0.576416,-1.708008,0.060791,-0.494141,62661847,3,0,6,0,0.000131,0.006336,0.250000,76.923073,5478,502,200,560,8315,7840,8035,7502,4,0.027703,-0.006624,0.009406,6254,4984,5261,5411
62.673397,-2347,14518,-9221,3628,106,250,0.109375,0.476562,-1.578125,0.019999,-0.019999,0.009998,-0.073730,-0.003174,-0.574707,0.934570,0.115234,0.021240,62661847,3,0,6,0,0.000131,0.006336,0.250000,76.923073,5476,-243,165,522,8386,7817,8032,7466,4,0.027688,-0.006624,0.009448,5681,5503,5792,4926
62.683163,-3399,-14511,-11112,5389,-590,2164,0.109375,0.476562,-1.578125,0.019999,-0.019999,0.009998,-0.080811,-0.003418,-0.575684,1.364502,-0.054688,0.488525,62676181,0,0,8,0,0.000021,0.006336,0.250000,71.428566,5479,-320,264,589,8376,7784,8007,7528,4,0.027698,-0.006665,0.009389,5733,5597,5813,4771
62.692928,887,-8426,-15092,-5825,-481,-645,0.109375,0.476562,-1.578125,0.019999,0.019999,0.009998,-0.081299,-0.003906,-0.576416,-1.373291,-0.028076,-0.197266,62689200,-1,0,-12,1,-0.000361,0.006336,0.250000,76.923073,5479,421,238,644,8356,7807,8033,7458,4,0.005902,0.026765,0.012190,6266,5027,5335,5286
62.702705,2219,21353,-10244,-5222,-196,-1606,0.109375,0.476562,-1.578125,0.019999,0.019999,0.009998,-0.073486,-0.003174,-0.575439,-1.226074,0.041504,-0.431885,62700912,-3,0,-18,0,0.000400,0.006336,0.250000,90.909088,5475,337,194,566,8352,7802,8056,7446,4,0.005928,0.026852,0.011986,6133,5090,5382,5293
62.712456,26,2786,-8841,6991,61,1710,0.109375,0.476562,-1.578125,0.019999,0.019999,0.009998,-0.073242,-0.002686,-0.573975,1.755615,0.104248,0.377686,62700912,-3,0,-18,0,0.000400,0.006336,0.250000,90.909088,5477,-478,156,477,8377,7781,8046,7498,4,0.005957,0.026843,0.011976,5487,5686,5943,4790
62.722221,-2072,-21935,-11661,3711,-342,1861,0.109375,0.476562,-1.578125,0.000000,0.000000,0.000000,-0.078857,-0.002686,-0.575684,0.954834,0.005859,0.414551,62714535,5,1,18,1,0.000715,0.000000,0.250000,76.923073,5473,-216,205,560,8330,7779,8039,7501,4,0.000000,0.000000,0.000000,5745,5490,5760,4895
62.731995,-833,8210,-9731,-7798,-642,-1859,0.109375,0.476562,-1.578125,0.000000,0.000000,0.000000,-0.075195,-0.002197,-0.575195,-1.854980,-0.067383,-0.493652,62728269,1,0,9,0,0.000593,0.000000,0.250000,76.923073,5470,516,244,447,8264,7847,8103,7464,4,0.000000,0.000000,0.000000,6230,5054,5156,5438
62.741772,2143,10638,-14322,7460,-363,797,0.109375,0.476562,-1.578125,0.000000,0.000000,0.000000,-0.065674,-0.001953,-0.573242,1.870117,0.000732,0.154785,62742056,-3,0,-3,-1,-0.000385,0.000000,0.250000,76.923073,5467,-565,203,258,8211,7868,8074,7538,4,0.000000,0.000000,0.000000,5340,5881,5851,4795
62.751518,-797,-14864,-15433,7990,98,2199,0.109375,0.476562,-1.578125,0.000000,0.000000,0.000000,-0.072998,-0.001465,-0.574463,1.999512,0.113281,0.497070,62742056,-3,0,-3,-1,-0.000385,0.000000,0.250000,76.923073,5470,-553,140,284,8168,7933,8040,7508,4,0.000000,0.000000,0.000000,5319,5817,5904,4838
62.761284,-2687,-10101,-13947,-5603,-451,-514,0.109375,0.476562,-1.578125,-0.009998,0.029999,-0.039999,-0.078857,-0.001465,-0.576904,-1.319092,-0.020752,-0.165283,62753857,0,0,-14,-1,0.000144,-0.025346,0.250000,90.909088,5444,392,196,437,8112,7937,7984,7595,4,-0.024814,0.022779,-0.038281,6078,5086,5246,5364
62.771065,-404,18079,-10575,-9071,-599,-2521,0.109375,0.476562,-1.578125,-0.009998,0.029999,-0.039999,-0.071045,-0.001709,-0.576904,-2.165771,-0.056885,-0.655273,62769273,3,2,-2,0,-0.000992,-0.025346,0.250000,66.666672,5441,579,218,430,8171,7857,7962,7572,4,-0.024813,0.022481,-0.038454,6219,4970,5092,5481
62.780819,1385,738,-8316,6274,-305,882,0.109375,0.476562,-1.578125,-0.009998,0.029999,-0.039999,-0.070068,-0.001221,-0.576416,1.580566,0.014893,0.175537,62781061,-1,0,-1,0,-0.000004,-0.025346,0.250000,90.909088,5441,-458,175,396,8171,7833,7976,7573,4,-0.024792,0.022445,-0.038484,5438,5690,5839,4795
62.790600,1299,-21152,-8713,5721,-468,2166,0.109375,0.476562,-1.578125,-0.009998,-0.029999,0.059999,-0.078857,-0.001709,-0.578125,1.445557,-0.024902,0.489014,62781061,-1,0,-1,0,-0.000004,0.038019,0.250000,90.909088,5513,-352,220,515,8217,7755,7993,7546,4,0.008131,-0.035221,0.057374,5677,5659,5863,4851
62.800350,-431,2675,-10268,-10431,-355,-1994,0.109375,0.476562,-1.578125,-0.009998,-0.029999,0.059999,-0.078857,-0.001953,-0.579346,-2.497803,0.002686,-0.526611,62796608,-1,0,15,0,-0.000501,0.038019,0.250000,66.666672,5512,727,205,606,8237,7812,8047,7551,4,0.008181,-0.035218,0.057381,6473,4839,5156,5578
62.810120,-2722,16056,-5420,-2497,-350,-1024,0.109375,0.476562,-1.578125,-0.009998,-0.029999,0.059999,-0.073486,-0.001953,-0.577637,-0.560791,0.003906,-0.289795,62808324,-3,0,-3,0,-0.000259,0.038019,0.250000,90.909088,5510,159,205,517,8340,7802,8015,7530,4,0.008132,-0.034911,0.057579,6025,5284,5511,5218
62.819881,-519,-9716,-12483,9151,-581,2194,0.109375,0.476562,-1.578125,-0.009998,-0.029999,0.059999,-0.078125,-0.001953,-0.578125,2.282959,-0.052490,0.495850,62808324,-3,0,-3,0,-0.000259,0.038019,0.250000,90.909088,5512,-591,236,556,8395,7760,7977,7618,4,0.008148,-0.035174,0.057407,5539,5818,6040,4649
62.829662,1400,-11227,-10577,-2155,-431,710,0.109375,0.476562,-1.578125,0.039999,0.019999,-0.049999,-0.084473,-0.002441,-0.579346,-0.477295,-0.015869,0.133545,62822072,-5,0,-17,0,-0.000170,-0.031683,0.250000,76.923073,5441,182,226,664,8427,7760,8024,7555,4,0.022384,0.042723,-0.046610,6061,5140,5484,5077
62.839417,512,10006,-8456,-9221,-405,-1861,0.109375,0.476562,-1.578125,0.039999,0.019999,-0.049999,-0.078613,-0.002197,-0.578857,-2.202393,-0.009521,-0.494141,62835636,-5,0,4,0,-0.000388,-0.031683,0.250000,76.923073,5438,617,220,638,8356,7775,8048,7490,4,0.022427,0.042447,-0.046861,6348,4838,5165,5399
62.849186,475,9719,-11136,4773,98,466,0.109375,0.476562,-1.578125,0.039999,0.019999,-0.049999,-0.073730,-0.001709,-0.576904,1.214111,0.113281,0.073975,62849344,0,0,7,0,0.000362,-0.031683,0.250000,76.923073,5435,-348,150,536,8320,7707,8014,7428,4,0.022518,0.042169,-0.047070,5563,5519,5842,4814
62.858940,-723,-15293,-11011,6614,-289,2194,0.109375,0.476562,-1.578125,0.019999,-0.019999,0.059999,-0.081787,-0.001709,-0.577637,1.663574,0.018799,0.495850,62849344,0,0,7,0,0.000362,0.038019,0.250000,76.923073,5513,-406,205,590,8337,7714,8018,7445,4,0.027787,-0.010717,0.059260,5665,5649,5950,4786
62.868710,-1410,-115,-12799,-8349,-765,-686,0.109375,0.476562,-1.578125,0.019999,-0.019999,0.059999,-0.085693,-0.002197,-0.578857,-1.989502,-0.097412,-0.207275,62863296,0,0,6,0,-0.000065,0.038019,0.250000,76.923073,5514,619,271,672,8330,7759,8050,7490,4,0.027823,-0.010919,0.059219,6479,4931,5220,5424
62.878475,1986,15173,-8056,-4960,-311,-1610,0.109375,0.476562,-1.578125,0.019999,-0.019999,0.059999,-0.076904,-0.001709,-0.577148,-1.162109,0.013428,-0.432861,62876673,-2,0,0,0,-0.000151,0.038019,0.250000,76.923073,5510,339,207,584,8404,7754,8067,7515,4,0.027784,-0.010440,0.059318,6188,5124,5415,5311
62.888241,-1290,2874,-4657,8399,95,1941,0.109375,0.476562,-1.578125,0.000000,0.029999,0.009998,-0.076172,-0.001221,-0.576172,2.099365,0.112549,0.434082,62876673,-2,0,0,0,-0.000151,0.006336,0.250000,76.923073,5476,-563,121,524,8469,7726,8023,7564,4,-0.016335,0.024318,0.011906,5425,5697,6050,4730
62.898003,-3060,-17562,-9020,1750,-708,1567,0.109375,0.476562,-1.578125,0.000000,0.029999,0.009998,-0.083984,-0.001221,-0.577393,0.476074,-0.083496,0.342773,62890385,-1,0,-17,-1,-0.000169,0.006336,0.250000,76.923073,5480,-71,229,614,8392,7759,8079,7530,4,-0.016365,0.024201,0.012093,5898,5385,5675,4960
62.907772,2879,3183,-7529,-8617,-651,-1536,0.109375,0.476562,-1.578125,0.000000,0.029999,0.009998,-0.080322,-0.001465,-0.577148,-2.054932,-0.069580,-0.414795,62903967,-3,0,-7,-1,-0.000510,0.006336,0.250000,76.923073,5478,599,225,601,8349,7759,8072,7477,4,-0.016359,0.024251,0.012008,6361,4913,5195,5441
62.917542,4137,2643,-14119,7968,-285,924,0.109375,0.476562,-1.578125,0.000000,0.029999,0.009998,-0.069824,-0.001221,-0.575195,1.994141,0.019775,0.185791,62903967,-3,0,-7,-1,-0.000510,0.006336,0.250000,76.923073,5473,-574,175,431,8324,7774,8075,7501,4,-0.016311,0.024408,0.011749,5406,5787,5970,4727
62.927307,-728,-5775,-11198,8096,-316,2332,0.109375,0.476562,-1.578125,-0.009998,-0.019999,0.009998,-0.075195,-0.001465,-0.575439,2.025391,0.012207,0.529541,62927455,7,0,21,0,0.000627,0.006336,0.250000,43.478260,5476,-528,195,445,8324,7808,8050,7495,4,0.002512,-0.022906,0.008297,5463,5764,5933,4742
62.937069,-311,-18258,-14619,-5276,-455,65,0.109375,0.476562,-1.578125,-0.009998,-0.019999,0.009998,-0.080811,-0.001709,-0.577148,-1.239258,-0.021729,-0.023926,62927455,7,0,21,0,0.000627,0.006336,0.250000,43.478260,5478,401,216,560,8248,7844,8043,7476,4,0.002557,-0.022950,0.008167,6194,5067,5321,5328
62.946838,34,12635,-7161,-4703,-830,-1992,0.109375,0.476562,-1.578125,-0.009998,-0.019999,0.009998,-0.072266,-0.001953,-0.576416,-1.099365,-0.113281,-0.526123,62941100,0,0,-7,0,-0.000201,0.006336,0.250000,76.923073,5474,315,268,507,8307,7803,8008,7525,4,0.002538,-0.022881,0.008361,6139,5187,5315,5253
62.956600,4115,7823,-13966,6322,-61,937,0.109375,0.476562,-1.578125,0.009998,0.009998,0.000000,-0.068115,-0.001709,-0.575195,1.592285,0.074463,0.188965,62954897,0,0,-16,0,-0.000055,0.000000,0.250000,76.923073,5467,-455,163,453,8315,7822,8008,7521,4,0.002948,0.013796,0.000937,5487,5677,5899,4803
62.966362,-46,-19139,-9770,2715,-213,1835,0.109375,0.476562,-1.578125,0.009998,0.009998,0.000000,-0.077148,-0.002197,-0.576904,0.711670,0.037354,0.408203,62954897,0,0,-16,0,-0.000055,0.000000,0.250000,76.923073,5471,-157,185,566,8315,7806,7965,7528,4,0.002924,0.013792,0.001059,5773,5429,5734,4946
62.976131,-1802,-3992,-11808,-7355,-486,-1128,0.109375,0.476562,-1.578125,0.009998,0.009998,0.000000,-0.075684,-0.002197,-0.577148,-1.746826,-0.029297,-0.315186,62968529,3,0,-2,0,0.000008,0.000000,0.250000,76.923073,5470,511,220,608,8276,7823,8056,7504,4,0.002920,0.013796,0.001040,6290,4960,5257,5371
62.985905,-1238,16399,-10222,527,-322,-1094,0.109375,0.476562,-1.578125,0.009998,0.009998,0.000000,-0.065430,-0.001953,-0.575684,0.177490,0.010742,-0.306885,62982165,0,0,2,0,0.000034,0.000000,0.250000,76.923073,5465,-81,197,507,8285,7800,8045,7488,4,0.002941,0.013801,0.000899,5800,5408,5636,5014
62.995674,-46,-2339,-14695,7057,-307,1931,0.109375,0.476562,-1.578125,0.000000,0.000000,0.009998,-0.068604,-0.002197,-0.575684,1.771729,0.014404,0.431641,62995833,5,0,16,0,-0.000271,0.006336,0.250000,76.923073,5472,-493,196,497,8298,7800,8057,7482,4,0.000022,-0.000687,0.009975,5510,5710,5930,4736
63.005428,1635,-18258,-5986,244,-396,1203,0.109375,0.476562,-1.578125,0.000000,0.000000,0.009998,-0.075195,-0.002197,-0.577393,0.108398,-0.007324,0.253906,62995833,5,0,16,0,-0.000271,0.006336,0.250000,76.923073,5476,3,206,596,8279,7816,8057,7501,4,0.000023,-0.000753,0.009969,5921,5321,5626,5034
63.015194,681,10930,-6935,-7510,-597,-2044,0.109375,0.476562,-1.578125,0.000000,0.000000,0.009998,-0.067627,-0.002197,-0.576904,-1.784668,-0.056396,-0.538818,63009491,0,0,-15,0,0.000267,0.006336,0.250000,76.923073,5472,476,234,579,8275,7816,8079,7475,4,0.000023,-0.000677,0.009975,6263,5011,5259,5353
63.024956,-2918,11828,-9049,2672,-21,193,0.109375,0.476562,-1.578125,-0.029999,-0.009998,0.009998,-0.063477,-0.001953,-0.575195,0.701172,0.084229,0.007324,63023161,0,1,-8,1,-0.000393,0.006336,0.250000,76.923073,5471,-221,143,477,8287,7779,8048,7513,4,-0.019712,-0.025294,0.008448,5654,5489,5764,4975
63.034729,-532,-16294,-10599,6538,-586,2244,0.109375,0.476562,-1.578125,-0.029999,-0.009998,0.009998,-0.071045,-0.001953,-0.576172,1.645020,-0.053711,0.508057,63023161,0,1,-8,1,-0.000393,0.006336,0.250000,76.923073,5474,-433,219,549,8302,7778,8039,7509,4,-0.019684,-0.025377,0.008255,5597,5660,5899,4738
63.044487,2736,-3693,-13393,-6098,-287,-721,0.109375,0.476562,-1.578125,-0.029999,-0.009998,0.009998,-0.072998,-0.002197,-0.577148,-1.439941,0.019287,-0.215820,63036854,0,0,-5,0,-0.000103,0.006336,0.250000,76.923073,5475,422,180,625,8305,7747,8016,7485,4,-0.019653,-0.025417,0.008213,6213,4991,5361,5333
63.054256,-429,17150,-7153,87,-442,-662,0.109375,0.476562,-1.578125,0.039999,0.000000,0.009998,-0.063965,-0.001953,-0.575928,0.070068,-0.018555,-0.201416,63051375,3,0,29,0,0.000015,0.006336,0.250000,71.428566,5471,-75,232,470,8303,7808,8087,7479,4,0.033568,0.021100,0.011298,5817,5453,5594,5018
63.064034,1758,-1282,-6239,8336,-91,1680,0.109375,0.476562,-1.578125,0.039999,0.000000,0.009998,-0.063721,-0.001953,-0.574951,2.083984,0.067139,0.370361,63062229,-1,0,-4,0,-0.000771,0.006336,0.250000,100.000000,5471,-627,184,405,8252,7855,8053,7449,4,0.033586,0.021071,0.011293,5360,5841,5986,4695
63.073788,394,-15033,-7730,-300,-411,1109,0.109375,0.476562,-1.578125,0.039999,0.000000,0.009998,-0.073730,-0.002197,-0.576904,-0.024414,-0.010986,0.230957,63062229,-1,0,-4,0,-0.000771,0.006336,0.250000,100.000000,5476,14,228,542,8241,7867,8048,7465,4,0.033538,0.021029,0.011497,5918,5356,5575,5053
63.083553,-912,10538,-8853,-10195,-760,-2103,0.109375,0.476562,-1.578125,0.039999,0.000000,0.009998,-0.072266,-0.002441,-0.577393,-2.440186,-0.096191,-0.553223,63075929,0,0,-9,0,0.000104,0.006336,0.250000,76.923073,5474,668,276,586,8266,7877,7999,7509,4,0.033538,0.021063,0.011466,6434,4903,5099,5458
63.093315,2727,11845,-9348,2606,-289,-165,0.109375,0.476562,-1.578125,-0.029999,-0.009998,0.009998,-0.064209,-0.002197,-0.575684,0.685059,0.018799,-0.080078,63089596,0,1,-10,1,0.000131,0.006336,0.250000,76.923073,5472,-228,178,485,8336,7795,7996,7511,4,-0.019693,-0.025311,0.008434,5679,5516,5749,4942
63.103096,-1142,-6957,-20144,7929,355,2465,0.109375,0.476562,-1.578125,-0.029999,-0.009998,0.009998,-0.069336,-0.001953,-0.576172,1.984619,0.176025,0.562012,63101278,-1,0,1,0,0.000091,0.006336,0.250000,90.909088,5473,-552,89,517,8300,7782,7997,7540,4,-0.019689,-0.025367,0.008298,5404,5667,6058,4761
63.112846,-5008,-2123,-10999,-7388,-466,-466,0.109375,0.476562,-1.578125,-0.029999,-0.009998,0.009998,-0.075928,-0.001953,-0.577637,-1.754883,-0.024414,-0.153564,63101278,-1,0,1,0,0.000091,0.006336,0.250000,90.909088,5476,506,195,561,8309,7730,8017,7536,4,-0.019653,-0.025448,0.008133,6252,4975,5260,5415
63.122612,-1957,17142,-9008,-7410,-1057,-2242,0.109375,0.476562,-1.578125,0.029999,0.009998,0.009998,-0.067139,-0.002197,-0.576416,-1.760254,-0.168701,-0.587158,63115211,1,0,22,0,0.000716,0.006336,0.250000,76.923073,5472,436,303,493,8275,7783,8068,7554,4,0.019722,0.024010,0.011587,6240,5131,5196,5319
63.132385,-228,-13285,-13187,8868,-651,2297,0.109375,0.476562,-1.578125,0.029999,0.009998,0.009998,-0.068848,-0.002197,-0.575928,2.213867,-0.069580,0.520996,63128702,-3,0,0,-1,-0.000329,0.006336,0.250000,76.923073,5473,-657,250,400,8309,7769,8011,7573,4,0.019736,0.023979,0.011632,5385,5914,5960,4631
63.142159,-2609,-14683,-9380,3574,-235,1691,0.109375,0.476562,-1.578125,0.029999,0.009998,0.009998,-0.074219,-0.001953,-0.576904,0.921387,0.031982,0.373047,63142317,-3,0,-24,0,0.000384,0.006336,0.250000,76.923073,5475,-263,192,467,8227,7857,8062,7512,4,0.019707,0.023937,0.011763,5658,5563,5758,4919
63.151913,-2150,-3310,-11384,-11946,-908,-1747,0.109375,0.476562,-1.578125,0.029999,0.009998,0.009998,-0.074707,-0.002930,-0.578613,-2.867676,-0.132324,-0.466309,63142317,-3,0,-24,0,0.000384,0.006336,0.250000,76.923073,5476,777,291,577,8225,7892,8054,7488,4,0.019675,0.023964,0.011760,6519,4843,5009,5531
63.161678,-404,9711,-9309,152,-222,-1000,0.109375,0.488281,-1.578125,-0.029999,0.019999,-0.049999,-0.067627,-0.002441,-0.576904,0.085938,0.035156,-0.283936,63155967,-1,0,-10,-1,-0.000311,-0.031683,0.250000,76.923073,5432,-68,160,490,8284,7818,7985,7509,4,-0.036183,0.003775,-0.049758,5742,5348,5611,5025
63.171444,1724,-1584,-10734,9265,-401,2029,0.109375,0.488281,-1.578125,-0.029999,0.019999,-0.049999,-0.070312,-0.002441,-0.576904,2.311035,-0.008545,0.455566,63169746,-1,0,1,1,-0.000235,-0.031683,0.250000,76.923073,5433,-664,183,500,8320,7736,7994,7502,4,-0.036179,0.003902,-0.049748,5342,5781,6023,4584
63.181206,296,-13231,-9319,-6115,-396,185,0.109375,0.488281,-1.578125,-0.029999,0.019999,-0.049999,-0.080566,-0.002930,-0.579102,-1.444092,-0.007324,0.005371,63169746,-1,0,1,1,-0.000235,-0.031683,0.250000,76.923073,5437,424,187,654,8259,7750,8008,7458,4,-0.036208,0.004335,-0.049695,6195,4942,5332,5277
63.190971,1900,5697,-5920,-9156,-409,-1717,0.109375,0.476562,-1.578125,0.049999,-0.029999,0.059999,-0.077393,-0.002930,-0.578369,-2.186523,-0.010498,-0.458984,63183329,1,0,15,1,-0.000345,0.038019,0.250000,76.923073,5509,607,247,615,8269,7720,8003,7477,4,0.058458,-0.002416,0.059814,6420,4946,5212,5456
63.200748,-497,15158,-11951,6194,-255,178,0.109375,0.476562,-1.578125,0.049999,-0.029999,0.059999,-0.069824,-0.002930,-0.576660,1.561279,0.027100,0.003662,63197036,-15,0,4,0,0.000592,0.038019,0.250000,76.923073,5506,-465,228,520,8381,7724,7985,7490,4,0.058453,-0.002080,0.059818,5598,5735,5933,4756
63.210518,264,-11887,-8149,4136,-475,2053,0.109375,0.476562,-1.578125,0.049999,-0.029999,0.059999,-0.078613,-0.003418,-0.577637,1.058594,-0.026611,0.461426,63210617,-3,0,-5,0,-0.000469,0.038019,0.250000,76.923073,5510,-275,261,608,8415,7811,8029,7521,4,0.058479,-0.002538,0.059774,5804,5584,5823,4827
63.220287,1787,-6339,-11899,-8171,-52,-475,0.109375,0.476562,-1.578125,0.049999,-0.029999,0.059999,-0.083984,-0.003418,-0.578613,-1.946045,0.076660,-0.155762,63210617,-3,0,-5,0,-0.000469,0.038019,0.250000,76.923073,5513,579,201,689,8383,7763,8054,7477,4,0.058473,-0.002795,0.059766,6408,4901,5306,5435
63.230042,-208,18062,-8012,-3914,-536,-1686,0.109375,0.488281,-1.578125,-0.029999,0.000000,0.039999,-0.072998,-0.003174,-0.577148,-0.906494,-0.041504,-0.451416,63224388,-7,0,-22,0,0.000027,0.025346,0.250000,76.923073,5495,229,211,595,8386,7763,8062,7549,4,-0.025009,-0.019257,0.038773,6103,5184,5481,5210
63.239807,-2155,5226,-10038,6769,91,1721,0.109375,0.488281,-1.578125,-0.029999,0.000000,0.039999,-0.072021,-0.002686,-0.575684,1.701660,0.111572,0.380371,63238063,2,-1,10,0,-0.000116,0.025346,0.250000,76.923073,5495,-484,125,535,8404,7738,8078,7506,4,-0.025052,-0.019181,0.038783,5508,5658,6016,4796
63.249565,-740,-15921,-6528,71,-514,1567,0.109375,0.488281,-1.578125,-0.029999,0.000000,0.039999,-0.082031,-0.002686,-0.577148,0.066162,-0.036133,0.342773,63238063,2,-1,10,0,-0.000116,0.025346,0.250000,76.923073,5499,10,203,558,8348,7749,8152,7516,4,-0.025024,-0.019603,0.038587,5928,5356,5627,5083
63.259327,3892,6822,-7428,-9474,-601,-2081,0.109375,0.488281,-1.578125,0.019999,0.009998,0.009998,-0.077637,-0.002930,-0.577393,-2.264160,-0.057373,-0.547852,63251710,1,0,15,0,0.000794,0.006336,0.250000,76.923073,5475,613,242,567,8326,7845,8123,7536,4,0.011329,0.018464,0.011428,6363,4929,5153,5453
63.269108,230,16784,-10697,-65,-132,-322,0.109375,0.488281,-1.578125,0.019999,0.009998,0.009998,-0.071777,-0.002686,-0.575439,0.033203,0.057129,-0.118408,63265374,-1,0,-7,0,0.000053,0.006336,0.250000,76.923073,5473,-45,179,446,8344,7800,8062,7484,4,0.011364,0.018504,0.011324,5790,5408,5601,5091
63.278877,-784,-9280,-17221,8940,-130,2334,0.109375,0.488281,-1.578125,0.019999,0.009998,0.009998,-0.077637,-0.002441,-0.575928,2.231445,0.057617,0.530029,63279113,-3,0,-14,0,0.000015,0.006336,0.250000,76.923073,5476,-614,177,464,8352,7786,8008,7512,4,0.011353,0.018442,0.011432,5399,5803,6016,4684
63.288628,443,-12556,-13130,-5052,-608,21,0.109375,0.488281,-1.578125,-0.019999,-0.019999,0.019999,-0.083496,-0.002930,-0.577637,-1.184570,-0.059082,-0.034668,63279113,-3,0,-14,0,0.000015,0.012672,0.250000,76.923073,5485,371,235,585,8272,7835,8078,7479,4,-0.005770,-0.029247,0.017640,6205,5096,5349,5288
63.298397,-865,17157,-10685,-7244,-688,-2085,0.109375,0.488281,-1.578125,-0.019999,-0.019999,0.019999,-0.078613,-0.002686,-0.576904,-1.719727,-0.078613,-0.548828,63291023,-3,0,-5,0,-0.000582,0.012672,0.250000,90.909088,5483,490,244,560,8324,7805,8036,7535,4,-0.005791,-0.029159,0.017783,6281,5029,5244,5376
63.308170,4277,3568,-7732,6715,-143,987,0.109375,0.488281,-1.578125,-0.019999,-0.019999,0.019999,-0.074951,-0.002441,-0.575684,1.688477,0.054443,0.201172,63304417,-1,0,2,0,-0.000108,0.012672,0.250000,76.923073,5482,-468,167,483,8378,7773,7983,7534,4,-0.005836,-0.029081,0.017884,5510,5689,5936,4791
63.317936,912,-17299,-12017,3923,135,2031,0.109375,0.488281,-1.578125,-0.019999,-0.019999,0.019999,-0.082031,-0.002197,-0.577393,1.006592,0.122314,0.456055,63318107,0,1,32,0,-0.000253,0.012672,0.250000,76.923073,5485,-236,128,596,8347,7755,8041,7548,4,-0.005792,-0.029222,0.017672,5706,5444,5859,4929
63.327694,-4242,-134,-14670,-8885,-427,-1279,0.109375,0.476562,-1.578125,0.019999,0.000000,0.000000,-0.084473,-0.001953,-0.577881,-2.120361,-0.014893,-0.352051,63318107,0,1,32,0,-0.000253,0.000000,0.250000,76.923073,5472,628,218,652,8369,7775,8051,7497,4,0.016749,0.010892,0.000885,6396,4856,5199,5435
63.337463,-2631,14182,-7877,-466,-856,-1096,0.109375,0.476562,-1.578125,0.019999,0.000000,0.000000,-0.075439,-0.002197,-0.575928,-0.064941,-0.119629,-0.307373,63331784,-5,0,-15,0,0.000001,0.000000,0.250000,76.923073,5468,9,279,546,8338,7728,8034,7517,4,0.016771,0.010867,0.000781,5944,5385,5537,5004
63.347229,3313,-6472,-15811,8724,126,2310,0.109375,0.476562,-1.578125,0.019999,0.000000,0.000000,-0.076416,-0.001953,-0.575439,2.178711,0.120117,0.524170,63345389,-1,0,-5,-1,-0.000144,0.000000,0.250000,76.923073,5470,-595,144,524,8390,7718,8040,7504,4,0.016772,0.010856,0.000797,5413,5730,6050,4685
63.356987,4591,-3938,-14155,-6569,340,-708,0.109375,0.476562,-1.578125,-0.029999,-0.019999,0.019999,-0.085449,-0.001465,-0.577393,-1.554932,0.172363,-0.212646,63345389,-1,0,-5,-1,-0.000144,0.012672,0.250000,76.923073,5486,508,90,680,8368,7757,8052,7510,4,-0.014187,-0.034721,0.017113,6248,4850,5403,5441
63.366753,-3379,8868,-6516,-9350,-906,-1564,0.109375,0.476562,-1.578125,-0.029999,-0.019999,0.019999,-0.079834,-0.001465,-0.576660,-2.233887,-0.131836,-0.421631,63359129,-1,0,-12,0,-0.000299,0.012672,0.250000,76.923073,5484,658,261,652,8375,7707,8058,7517,4,-0.014207,-0.034614,0.017314,6459,4877,5160,5438
63.376530,-963,1003,-10236,6597,-244,636,0.109375,0.476562,-1.578125,-0.029999,-0.019999,0.019999,-0.070557,-0.000977,-0.574219,1.659424,0.029785,0.115479,63373119,7,0,9,0,0.000251,0.012672,0.250000,76.923073,5480,-463,168,512,8412,7685,8036,7536,4,-0.014295,-0.034417,0.017627,5527,5670,5944,4777
63.386292,1898,-11720,-14766,8271,-244,2593,0.109375,0.476562,-1.578125,-0.029999,-0.019999,0.019999,-0.075439,-0.000977,-0.574707,2.068115,0.029785,0.593262,63373119,7,0,9,0,0.000251,0.012672,0.250000,76.923073,5482,-541,168,532,8379,7752,8094,7496,4,-0.014284,-0.034508,0.017460,5484,5717,6011,4714
63.396057,806,-1216,-13456,-9328,-150,-1096,0.109375,0.476562,-1.578125,0.029999,-0.009998,-0.019999,-0.079102,-0.001221,-0.575928,-2.228516,0.052734,-0.307373,63388429,5,1,18,0,0.000438,-0.012672,0.250000,66.666672,5457,649,183,615,8302,7810,8101,7504,4,0.030575,0.009518,-0.019347,6352,4820,5176,5478
63.405819,-939,9135,-7578,-3463,-710,-1155,0.109375,0.476562,-1.578125,0.029999,-0.009998,-0.019999,-0.068848,-0.001221,-0.573975,-0.796631,-0.083984,-0.321777,63402169,3,0,-10,-1,0.000910,-0.012672,0.250000,76.923073,5452,194,259,484,8320,7761,8067,7494,4,0.030595,0.009258,-0.019447,6014,5255,5373,5164
63.415611,-694,-5469,-8470,10631,-514,1806,0.109375,0.476562,-1.578125,0.029999,-0.009998,-0.019999,-0.063965,-0.001221,-0.572754,2.644531,-0.036133,0.401123,63416369,1,0,-13,0,-0.001326,-0.012672,0.250000,71.428566,5450,-773,234,400,8287,7809,8042,7459,4,0.030602,0.009128,-0.019496,5268,5961,6031,4538
63.425346,1861,-8728,-8846,-139,-392,1255,0.109375,0.476562,-1.578125,-0.029999,-0.009998,0.009998,-0.072266,-0.001465,-0.574463,0.014893,-0.006348,0.266602,63416369,1,0,-13,0,-0.001326,0.006336,0.250000,71.428566,5474,-10,188,397,8203,7878,8093,7422,4,-0.019730,-0.025352,0.008219,5798,5415,5546,5135
63.435112,2545,2889,-5253,-10405,-220,-1904,0.109375,0.476562,-1.578125,-0.029999,-0.009998,0.009998,-0.069580,-0.001465,-0.574951,-2.491455,0.035645,-0.504639,63428002,5,0,-2,0,-0.000042,0.006336,0.250000,90.909088,5473,663,164,354,8170,7983,8084,7410,4,-0.019716,-0.025342,0.008285,6234,4943,5065,5648
63.444885,-63,13074,-10511,4372,-340,-642,0.109375,0.476562,-1.578125,-0.029999,-0.009998,0.009998,-0.060791,-0.001221,-0.573730,1.116455,0.006348,-0.196533,63443028,13,0,25,1,-0.000077,0.006336,0.250000,66.666672,5470,-374,179,252,8121,7941,8032,7561,4,-0.019752,-0.025242,0.008509,5458,5734,5733,4953
63.454647,-1648,-2430,-14673,8096,63,1865,0.109375,0.476562,-1.578125,0.000000,0.000000,0.000000,-0.066650,-0.001221,-0.575439,2.025391,0.104736,0.415527,63443028,13,0,25,1,-0.000077,0.000000,0.250000,66.666672,5465,-590,135,338,8154,7940,8000,7574,4,0.000000,0.000000,0.000000,5312,5808,5955,4783
63.464413,-2734,-7767,-13932,-8410,-549,-651,0.109375,0.476562,-1.578125,0.000000,0.000000,0.000000,-0.074707,-0.001709,-0.577881,-2.004395,-0.044678,-0.198730,63456715,1,0,0,0,0.000148,0.000000,0.250000,76.923073,5468,560,220,508,8202,7949,7992,7581,4,0.000000,0.000000,0.000000,6273,4973,5170,5454
63.474182,2219,15144,-8382,-6826,-760,-2462,0.109375,0.476562,-1.578125,0.000000,0.000000,0.000000,-0.067139,-0.001953,-0.577637,-1.617676,-0.096191,-0.640869,63470402,-3,0,-7,0,-0.000553,0.000000,0.250000,76.923073,5466,406,252,495,8225,7887,8002,7562,4,0.000000,0.000000,0.000000,6178,5109,5248,5327
63.483952,2504,6305,-10533,6584,-41,839,0.109375,0.476562,-1.578125,0.000000,0.000000,0.000000,-0.065186,-0.001709,-0.576904,1.656250,0.079346,0.165039,63484063,-2,2,-21,2,0.000110,0.000000,0.250000,76.923073,5464,-505,152,461,8242,7828,7966,7581,4,0.000000,0.000000,0.000000,5444,5698,5944,4768
63.493706,-3188,-17125,-12340,3376,-268,1852,0.109375,0.476562,-1.578125,-0.009998,-0.049999,0.019999,-0.074463,-0.001709,-0.578613,0.873047,0.023926,0.412354,63484063,-2,2,-21,2,0.000110,0.012672,0.250000,76.923073,5480,-225,192,575,8294,7789,8019,7527,4,0.019017,-0.048683,0.016381,5744,5487,5790,4897
63.503475,-500,-4000,-12208,-9548,-858,-1329,0.109375,0.476562,-1.578125,-0.009998,-0.049999,0.019999,-0.075928,-0.002441,-0.579590,-2.282227,-0.120117,-0.364258,63497794,0,-1,16,0,-0.001044,0.012672,0.250000,76.923073,5481,642,277,647,8266,7817,8024,7510,4,0.019072,-0.048689,0.016302,6454,4899,5154,5415
63.513245,-507,14619,-8765,-523,-483,-1094,0.109375,0.476562,-1.578125,-0.009998,-0.049999,0.019999,-0.068604,-0.002441,-0.578125,-0.078857,-0.028564,-0.306885,63511514,0,0,13,0,0.000317,0.012672,0.250000,76.923073,5478,-7,226,576,8332,7758,8035,7483,4,0.019004,-0.048593,0.016661,5920,5354,5611,5025
63.523003,1618,-1770,-11914,8519,-246,2144,0.109375,0.476562,-1.578125,-0.070000,-0.009998,0.080000,-0.071777,-0.002441,-0.577393,2.128662,0.029297,0.483643,63511514,0,0,13,0,0.000317,0.050693,0.250000,76.923073,5521,-594,154,562,8380,7728,8024,7499,4,-0.052980,-0.052214,0.076590,5490,5768,6113,4711
63.532768,934,-19860,-7028,-3062,-189,895,0.109375,0.476562,-1.578125,-0.070000,-0.009998,0.080000,-0.079834,-0.002686,-0.579346,-0.698730,0.043213,0.178711,63525143,-2,0,1,1,0.000220,0.050693,0.250000,76.923073,5524,227,148,684,8390,7773,8111,7478,4,-0.052868,-0.052934,0.076169,6131,5126,5600,5237
63.542542,-1832,9608,-8157,-8944,-675,-1979,0.109375,0.476562,-1.578125,-0.070000,-0.009998,0.080000,-0.075684,-0.002930,-0.578613,-2.134766,-0.075439,-0.522949,63538812,-3,0,-9,0,0.000684,0.050693,0.250000,76.923073,5522,594,214,659,8403,7771,8121,7539,4,-0.052898,-0.052582,0.076394,6422,4923,5280,5461
63.552315,-929,7710,-11872,5289,-605,536,0.109375,0.476562,-1.578125,-0.070000,-0.009998,0.080000,-0.069824,-0.002930,-0.576660,1.340088,-0.058350,0.091064,63550502,-3,0,-11,0,-0.000399,0.050693,0.250000,90.909088,5519,-394,206,537,8419,7739,8099,7535,4,-0.052992,-0.052036,0.076703,5654,5674,5920,4826
63.562065,3654,-18087,-10401,7218,-204,2739,0.109375,0.476562,-1.578125,0.039999,-0.029999,-0.080000,-0.075684,-0.003418,-0.576660,1.811035,0.039551,0.628906,63550502,-3,0,-11,0,-0.000399,-0.050693,0.250000,90.909088,5414,-518,219,511,8362,7838,8139,7511,4,0.049602,0.002748,-0.080184,5458,5679,5880,4637
63.571831,-568,-2911,-11833,-9404,176,-1126,0.109375,0.476562,-1.578125,0.039999,-0.029999,-0.080000,-0.081055,-0.003418,-0.578369,-2.247070,0.132324,-0.314697,63564298,2,0,21,0,-0.000256,-0.050693,0.250000,76.923073,5415,632,165,616,8305,7865,8132,7402,4,0.049612,0.003252,-0.080168,6286,4776,5159,5437
63.581608,-4529,19740,-9917,-4823,-817,-1514,0.109375,0.476562,-1.578125,0.039999,-0.029999,-0.080000,-0.074463,-0.003662,-0.576904,-1.128662,-0.110107,-0.409424,63577800,2,0,6,2,-0.000187,-0.050693,0.250000,76.923073,5412,288,302,534,8290,7770,7988,7423,4,0.049593,0.002649,-0.080209,6096,5154,5261,5135
63.591377,309,-7489,-8394,9847,-342,1974,0.109375,0.476562,-1.578125,0.000000,-0.059999,-0.009998,-0.073975,-0.003174,-0.576172,2.452881,0.005859,0.442139,63591493,-1,0,3,0,-0.000539,-0.006336,0.250000,76.923073,5461,-681,222,498,8308,7694,7923,7397,4,0.032661,-0.049420,-0.013800,5385,5850,6034,4573
63.601128,2717,-15423,-6803,656,-58,1373,0.109375,0.476562,-1.578125,0.000000,-0.059999,-0.009998,-0.082031,-0.003174,-0.577881,0.208984,0.075195,0.295410,63591493,-1,0,3,0,-0.000539,-0.006336,0.250000,76.923073,5464,-16,180,607,8297,7770,7951,7426,4,0.032743,-0.049252,-0.014185,5883,5299,5651,5021
63.610901,730,12998,-7418,-11483,-333,-1961,0.109375,0.476562,-1.578125,0.000000,-0.059999,-0.009998,-0.079834,-0.002686,-0.577881,-2.754639,0.008057,-0.518555,63605722,-4,0,-8,1,-0.000313,-0.006336,0.250000,71.428566,5463,772,215,552,8278,7786,8042,7454,4,0.032748,-0.049289,-0.014064,6436,4793,5041,5580
63.620667,-1196,8333,-10558,3825,-148,-237,0.109375,0.476562,-1.578125,0.000000,-0.059999,-0.009998,-0.070801,-0.002197,-0.575928,0.982910,0.053223,-0.097656,63618840,0,0,-19,-2,0.000234,-0.006336,0.250000,76.923073,5459,-294,186,447,8310,7744,8006,7522,4,0.032658,-0.049474,-0.013605,5606,5574,5758,4896
63.630424,-1326,-20088,-17537,8992,71,2735,0.109375,0.476562,-1.578125,-0.019999,0.009998,0.029999,-0.076416,-0.001709,-0.576660,2.244141,0.106689,0.627930,63618840,0,0,-19,-2,0.000234,0.019009,0.250000,76.923073,5489,-617,122,487,8325,7771,8011,7535,4,-0.022161,-0.004811,0.029755,5382,5767,6082,4723
63.640186,-1888,1542,-16875,-7841,-296,-850,0.109375,0.476562,-1.578125,-0.019999,0.009998,0.029999,-0.081543,-0.001465,-0.577881,-1.865479,0.017090,-0.247314,63632563,3,0,29,-1,-0.000481,0.019009,0.250000,76.923073,5490,542,170,573,8262,7791,8058,7515,4,-0.022165,-0.004995,0.029726,6279,4940,5273,5466
63.649956,-232,14852,-8647,-7484,-719,-1878,0.109375,0.476562,-1.578125,-0.019999,0.009998,0.029999,-0.073486,-0.001221,-0.576904,-1.778320,-0.086182,-0.498291,63646301,3,0,0,-1,0.000617,0.019009,0.250000,76.923073,5487,467,228,514,8272,7812,8099,7542,4,-0.022174,-0.004728,0.029766,6235,5061,5252,5398
63.659740,2067,-559,-5841,8914,-440,1403,0.109375,0.476562,-1.578125,-0.009998,-0.019999,0.009998,-0.071533,-0.001221,-0.575928,2.225098,-0.018066,0.302734,63659896,-1,1,-8,0,-0.000082,0.006336,0.250000,76.923073,5471,-630,207,455,8301,7774,8062,7577,4,0.002520,-0.022878,0.008378,5399,5835,5997,4651
63.669487,68,-13111,-9930,-3533,-233,283,0.109375,0.476562,-1.578125,-0.009998,-0.019999,0.009998,-0.081787,-0.001221,-0.578125,-0.813721,0.032471,0.029297,63659896,-1,1,-8,0,-0.000082,0.006336,0.250000,76.923073,5476,274,178,602,8325,7795,8060,7549,4,0.002573,-0.022956,0.008143,6096,5107,5457,5242
63.679256,-2288,-1885,-7438,-11507,-717,-1527,0.109375,0.476562,-1.578125,-0.009998,-0.019999,0.009998,-0.079102,-0.001709,-0.578369,-2.760498,-0.085693,-0.412598,63673770,-1,0,-11,0,0.000231,0.006336,0.250000,76.923073,5475,794,247,676,8334,7765,8021,7526,4,0.002582,-0.022930,0.008208,6549,4750,5076,5523
63.689034,-470,7676,-7776,1405,-555,-680,0.109375,0.476562,-1.578125,-0.009998,-0.019999,0.009998,-0.068848,-0.001221,-0.576172,0.392090,-0.046143,-0.205811,63685273,-3,0,-9,0,-0.000757,0.006336,0.250000,90.909088,5471,-133,221,543,8394,7733,8031,7498,4,0.002528,-0.022852,0.008440,5804,5449,5680,4949
63.698814,2562,-3462,-14641,10777,-224,2611,0.109375,0.476562,-1.578125,-0.059999,-0.049999,0.009998,-0.069824,-0.001465,-0.575439,2.680176,0.034668,0.597656,63698947,5,1,21,2,0.000452,0.006336,0.250000,76.923073,5471,-735,163,517,8368,7743,8060,7477,4,-0.023099,-0.075117,0.004796,5325,5847,6133,4577
63.708549,-2538,-11627,-11791,-4400,-113,361,0.109375,0.476562,-1.578125,-0.059999,-0.049999,0.009998,-0.075684,-0.001465,-0.577148,-1.025391,0.061768,0.048340,63698947,5,1,21,2,0.000452,0.006336,0.250000,76.923073,5474,314,146,619,8273,7782,8069,7472,4,-0.022970,-0.075186,0.004367,6108,5045,5458,5283
63.718327,-2109,14494,-10658,-7940,-710,-1793,0.109375,0.476562,-1.578125,-0.059999,-0.049999,0.009998,-0.068604,-0.001709,-0.575928,-1.889648,-0.083984,-0.477539,63712632,1,0,5,0,0.000169,0.006336,0.250000,76.923073,5471,511,230,549,8304,7813,8121,7459,4,-0.023058,-0.075121,0.004901,6269,4997,5221,5395
63.728085,632,2393,-10916,7970,-590,754,0.109375,0.476562,-1.578125,0.019999,-0.009998,0.009998,-0.062500,-0.001709,-0.574707,1.994629,-0.054688,0.144287,63726258,1,0,-13,0,0.000703,0.006336,0.250000,76.923073,5469,-610,240,460,8250,7763,8042,7531,4,0.022239,0.001849,0.010095,5437,5839,5960,4638
63.737850,887,-14435,-11313,5810,-361,2260,0.109375,0.476562,-1.578125,0.019999,-0.009998,0.009998,-0.069336,-0.002197,-0.575439,1.467285,0.001221,0.511963,63726258,1,0,-13,0,0.000703,0.006336,0.250000,76.923073,5471,-432,212,514,8277,7823,8084,7429,4,0.022240,0.001802,0.010097,5572,5669,5883,4758
63.747616,981,-2918,-12515,-10793,21,-1390,0.109375,0.476562,-1.578125,0.019999,-0.009998,0.009998,-0.068359,-0.001709,-0.576416,-2.586182,0.094482,-0.379150,63740408,3,-1,-19,-1,0.000094,0.006336,0.250000,71.428566,5470,670,153,506,8132,7963,8178,7374,4,0.022235,0.001829,0.010106,6304,4851,5141,5582
63.757385,-4659,16669,-7656,-2364,-562,-1628,0.109375,0.476562,-1.578125,0.019999,-0.009998,0.009998,-0.060303,-0.001709,-0.574951,-0.528320,-0.047852,-0.437256,63753652,4,0,-1,0,-0.000158,0.006336,0.250000,76.923073,5468,62,232,415,8151,7926,8110,7431,4,0.022237,0.001882,0.010089,5883,5380,5467,5140
63.767143,-3904,-6374,-11541,8997,-597,1896,0.109375,0.476562,-1.578125,-0.039999,-0.059999,0.000000,-0.064209,-0.001709,-0.575195,2.245361,-0.056396,0.423096,63753652,4,0,-1,0,-0.000158,0.000000,0.250000,76.923073,5464,-647,222,426,8197,7917,7989,7529,4,-0.000913,-0.071947,-0.004625,5376,5865,5977,4636
63.776932,4228,-14884,-11911,-1987,-457,1022,0.109375,0.476562,-1.578125,-0.039999,-0.059999,0.000000,-0.073730,-0.002197,-0.577393,-0.436279,-0.022217,0.209717,63769267,11,0,21,0,0.001183,0.000000,0.250000,66.666672,5468,143,205,564,8234,7833,7985,7534,4,-0.000760,-0.071897,-0.005309,5996,5229,5503,5142
63.786678,4372,10094,-7514,-9980,-39,-2345,0.109375,0.476562,-1.578125,-0.039999,-0.059999,0.000000,-0.070801,-0.001953,-0.577637,-2.387695,0.079834,-0.612305,63780979,-1,0,7,1,0.000069,0.000000,0.250000,90.909088,5466,657,145,589,8246,7830,8028,7527,4,-0.000739,-0.071922,-0.005098,6327,4809,5193,5533
63.796448,-3536,10867,-10089,3737,-505,135,0.117188,0.468750,-1.578125,0.009998,-0.009998,0.019999,-0.066650,-0.001709,-0.576416,0.961182,-0.033936,-0.006836,63794619,-4,0,-10,-1,-0.000292,0.012672,0.250000,76.923073,5477,-307,225,528,8363,7722,8010,7532,4,0.013871,-0.004261,0.019731,5683,5589,5798,4836
63.806213,-3742,-12370,-6835,-1530,-409,845,0.117188,0.468750,-1.578125,0.009998,-0.009998,0.019999,-0.078125,-0.001953,-0.578369,-0.324707,-0.010498,0.166504,63794619,-4,0,-10,-1,-0.000292,0.012672,0.250000,76.923073,5481,115,212,657,8360,7718,7989,7544,4,0.013878,-0.004456,0.019680,6040,5221,5578,5083
63.815971,1942,-1920,-14008,-7737,-233,-669,0.117188,0.468750,-1.578125,0.009998,-0.009998,0.019999,-0.077637,-0.002197,-0.578369,-1.840088,0.032471,-0.203125,63808510,-3,0,-7,0,0.000148,0.012672,0.250000,76.923073,5480,536,192,741,8409,7679,8017,7555,4,0.013887,-0.004449,0.019680,6365,4866,5335,5352
63.825748,-1827,20147,-7791,-5322,-658,-1654,0.117188,0.468750,-1.578125,-0.039999,-0.059999,0.009998,-0.069092,-0.001953,-0.576660,-1.250488,-0.071289,-0.443604,63821941,-1,0,28,0,-0.000314,0.006336,0.250000,76.923073,5470,338,238,644,8395,7692,8055,7522,4,-0.000786,-0.072624,0.004990,6199,5077,5384,5218
63.835518,105,-2332,-8294,8772,-499,2144,0.117188,0.468750,-1.578125,-0.039999,-0.059999,0.009998,-0.068359,-0.001953,-0.575439,2.190430,-0.032471,0.483643,63835722,2,0,1,0,0.000565,0.006336,0.250000,76.923073,5470,-611,219,575,8448,7661,8071,7467,4,-0.000884,-0.072617,0.005043,5480,5769,6034,4595
63.845268,694,-21711,-6616,1902,-119,1558,0.117188,0.468750,-1.578125,-0.039999,-0.059999,0.009998,-0.075195,-0.001709,-0.576416,0.513184,0.060303,0.340576,63835722,2,0,1,0,0.000565,0.006336,0.250000,76.923073,5473,-110,164,644,8393,7706,8109,7442,4,-0.000805,-0.072647,0.004549,5833,5344,5756,4957
63.855042,-380,14499,-9054,-9515,-507,-1785,0.117188,0.468750,-1.578125,-0.039999,-0.059999,0.009998,-0.070801,-0.001709,-0.576172,-2.274170,-0.034424,-0.475586,63849357,-1,0,-2,0,0.000425,0.006336,0.250000,76.923073,5471,627,217,619,8334,7739,8106,7441,4,-0.000831,-0.072631,0.004870,6377,4871,5183,5451
63.864803,-941,12615,-5959,734,-359,-422,0.117188,0.468750,-1.578125,-0.019999,-0.049999,0.000000,-0.062012,-0.001221,-0.573730,0.228271,0.001709,-0.142822,63863014,1,0,-9,0,-0.000151,0.000000,0.250000,76.923073,5461,-119,201,448,8350,7789,8118,7453,4,0.010346,-0.052746,-0.003292,5742,5463,5627,5010
63.874565,41,-13606,-14663,9382,-396,2554,0.117188,0.468750,-1.578125,-0.019999,-0.049999,0.000000,-0.067139,-0.001465,-0.574219,2.339600,-0.007324,0.583740,63863014,1,0,-9,0,-0.000151,0.000000,0.250000,76.923073,5463,-663,209,461,8308,7816,8090,7448,4,0.010369,-0.052721,-0.003558,5372,5849,6014,4615
63.884335,-1927,-4156,-12176,-4435,-191,23,0.117188,0.468750,-1.578125,-0.019999,-0.049999,0.000000,-0.071289,-0.001221,-0.575195,-1.033936,0.042725,-0.034180,63876794,3,0,-17,-1,-0.000256,0.000000,0.250000,76.923073,5465,290,178,527,8262,7840,8070,7464,4,0.010424,-0.052693,-0.003779,6059,5122,5397,5280
63.894104,-3509,19298,-10182,-7386,-459,-2007,0.117188,0.468750,-1.578125,-0.009998,-0.039999,0.009998,-0.064453,-0.001221,-0.574707,-1.754395,-0.022705,-0.529785,63892346,15,1,20,0,-0.000332,0.006336,0.250000,66.666672,5469,440,217,489,8244,7826,8042,7505,4,0.013374,-0.039567,0.007440,6178,5066,5248,5382
63.903862,1074,-3198,-5532,7242,-588,856,0.117188,0.468750,-1.578125,-0.009998,-0.039999,0.009998,-0.061523,-0.001221,-0.573975,1.817139,-0.054199,0.169189,63892346,15,1,20,0,-0.000332,0.006336,0.250000,66.666672,5467,-555,235,432,8268,7824,8017,7489,4,0.013340,-0.039561,0.007558,5456,5809,5909,4692
63.913628,2847,-14766,-12314,5002,-451,1793,0.117188,0.468750,-1.578125,-0.009998,-0.039999,0.009998,-0.069092,-0.001465,-0.575439,1.270020,-0.020752,0.397949,63906013,1,0,11,0,-0.000081,0.006336,0.250000,76.923073,5470,-358,217,523,8257,7833,8017,7521,4,0.013400,-0.039589,0.007262,5631,5615,5831,4801
63.923397,-1093,1878,-9834,-9953,30,-1490,0.117188,0.468750,-1.578125,-0.009998,-0.039999,0.009998,-0.068848,-0.001465,-0.576660,-2.381104,0.096680,-0.403564,63918109,0,0,-6,0,0.000396,0.006336,0.250000,83.333336,5470,642,151,601,8245,7879,8075,7483,4,0.013445,-0.039573,0.007270,6331,4822,5209,5516
63.933167,-1532,8416,-10700,1647,167,176,0.109375,0.468750,-1.566406,-0.049999,-0.080000,0.039999,-0.061523,-0.000732,-0.574707,0.451172,0.130127,0.003174,63918109,0,0,-6,0,0.000396,0.025536,0.250000,83.333336,5497,-172,118,426,8271,7814,8063,7475,4,0.001572,-0.096605,0.034121,5671,5489,5748,5078
63.942940,-701,-10222,-9599,10084,-662,2114,0.109375,0.468750,-1.566406,-0.049999,-0.080000,0.039999,-0.062256,-0.000732,-0.574707,2.510742,-0.072266,0.476318,63943143,2,0,-14,0,-0.000301,0.025536,0.250000,40.000000,5497,-734,229,406,8261,7833,8085,7515,4,0.001554,-0.096633,0.034035,5342,5974,6057,4613
63.952690,2484,-7399,-14496,-2234,-98,592,0.109375,0.468750,-1.566406,-0.049999,-0.080000,0.039999,-0.068848,-0.000732,-0.576416,-0.496582,0.065430,0.104736,63943143,2,0,-14,0,-0.000301,0.025536,0.250000,40.000000,5499,132,154,521,8251,7874,8096,7525,4,0.001739,-0.096854,0.033398,5961,5254,5557,5222
63.962460,1959,6155,-10442,-9585,-126,-1843,0.109375,0.468750,-1.566406,0.009998,-0.049999,-0.019999,-0.066406,-0.000488,-0.576172,-2.291260,0.058594,-0.489746,63956776,4,0,6,0,0.000326,-0.012767,0.250000,76.923073,5456,590,174,500,8237,7883,8044,7511,4,0.035624,-0.035062,-0.022400,6246,4911,5165,5500
63.972221,-2280,8831,-10489,4274,-281,-211,0.109375,0.468750,-1.566406,0.009998,-0.049999,-0.019999,-0.060547,-0.000244,-0.575439,1.092285,0.020752,-0.091309,63970423,6,0,20,-1,0.000267,-0.012767,0.250000,76.923073,5455,-372,196,440,8256,7833,8034,7552,4,0.035590,-0.035226,-0.022185,5550,5636,5799,4833
63.981991,-1451,-6197,-10094,6784,-368,2020,0.109375,0.468750,-1.566406,0.009998,-0.049999,-0.019999,-0.067139,0.000000,-0.576416,1.705078,-0.000488,0.453369,63982267,0,0,2,0,0.000238,-0.012767,0.250000,90.909088,5458,-500,205,515,8253,7842,8037,7508,4,0.035627,-0.035036,-0.022406,5506,5698,5924,4702
63.991760,605,-2756,-13214,-7366,-305,-618,0.109375,0.468750,-1.566406,0.009998,-0.049999,-0.019999,-0.072754,-0.000244,-0.577881,-1.749512,0.014893,-0.190674,63982267,0,0,2,0,0.000238,-0.012767,0.250000,90.909088,5460,476,196,623,8227,7830,8063,7501,4,0.035686,-0.034859,-0.022603,6246,4950,5296,5346
64.001526,1508,12640,-8294,-4138,-298,-1632,0.109375,0.468750,-1.566406,-0.039999,-0.019999,0.019999,-0.065186,0.000244,-0.576904,-0.961426,0.016602,-0.438232,63995838,-3,0,-21,0,0.000131,0.012767,0.250000,76.923073,5483,209,155,552,8263,7801,8074,7492,4,-0.022620,-0.039802,0.017443,6016,5168,5501,5245
64.011284,-2474,2822,-5991,6100,-287,1471,0.109375,0.468750,-1.566406,-0.039999,-0.019999,0.019999,-0.064941,0.000244,-0.576172,1.538330,0.019287,0.319336,64009554,0,1,1,0,-0.000081,0.012767,0.250000,76.923073,5484,-473,154,513,8294,7738,8055,7535,4,-0.022653,-0.039777,0.017440,5514,5670,5966,4784
64.021049,-2131,-14940,-7046,1251,-581,1490,0.109375,0.468750,-1.566406,-0.039999,-0.019999,0.019999,-0.074463,0.000488,-0.577637,0.354248,-0.052490,0.323975,64021262,0,0,2,0,-0.000375,0.012767,0.250000,90.909088,5488,-93,190,624,8293,7770,8090,7545,4,-0.022589,-0.039979,0.017059,5868,5376,5731,4975
64.030815,2079,4738,-7955,-8310,-379,-1654,0.109375,0.457031,-1.566406,-0.019999,-0.070000,0.029999,-0.072021,0.000000,-0.577881,-1.979980,-0.003174,-0.443604,64021262,0,0,2,0,-0.000375,0.019151,0.250000,90.909088,5493,539,194,643,8292,7770,8099,7519,4,0.021488,-0.071538,0.024923,6332,4927,5296,5415
64.040581,-826,14585,-7156,-982,-514,-601,0.109375,0.457031,-1.566406,-0.019999,-0.070000,0.029999,-0.065430,0.000244,-0.575928,-0.190674,-0.036133,-0.186523,64034915,1,0,28,-1,-0.000060,0.019151,0.250000,76.923073,5490,9,210,545,8355,7758,8092,7492,4,0.021358,-0.071412,0.025393,5917,5359,5607,5075
64.050362,475,-8556,-11276,7310,-581,2231,0.109375,0.457031,-1.566406,-0.019999,-0.070000,0.029999,-0.069824,0.000000,-0.575928,1.833496,-0.052490,0.504883,64046589,2,0,-5,1,0.000116,0.019151,0.250000,90.909088,5493,-520,224,539,8352,7757,8057,7527,4,0.021355,-0.071521,0.025054,5553,5749,5971,4697
64.060127,669,-13572,-10241,-1747,-196,640,0.109375,0.457031,-1.566406,-0.019999,-0.029999,0.009998,-0.074463,-0.000244,-0.577393,-0.377686,0.041504,0.116455,64060407,0,0,-8,0,0.000474,0.006383,0.250000,76.923073,5481,88,157,612,8313,7814,8128,7464,4,-0.000377,-0.036691,0.007292,5960,5223,5613,5126
64.069878,-2452,17417,-9513,-7081,-468,-1985,0.109375,0.457031,-1.566406,-0.019999,-0.029999,0.009998,-0.067871,-0.000244,-0.576416,-1.679932,-0.024902,-0.524414,64060407,0,0,-8,0,0.000474,0.006383,0.250000,76.923073,5477,409,195,556,8253,7838,8119,7463,4,-0.000407,-0.036646,0.007526,6182,5047,5327,5350
64.079651,-360,3278,-12605,3526,-693,642,0.109375,0.457031,-1.566406,-0.019999,-0.029999,0.009998,-0.066406,-0.000488,-0.575439,0.909668,-0.079834,0.116943,64073953,0,0,-5,0,-0.000182,0.006383,0.250000,76.923073,5477,-306,226,489,8288,7792,8095,7502,4,-0.000447,-0.036633,0.007583,5664,5608,5778,4856
64.089417,2067,-16360,-13797,7198,-58,2360,0.109375,0.457031,-1.566406,-0.019999,-0.029999,0.009998,-0.072266,-0.000488,-0.576172,1.806152,0.075195,0.536377,64087775,2,0,7,1,0.000365,0.006383,0.250000,76.923073,5480,-514,141,562,8311,7786,8080,7504,4,-0.000413,-0.036676,0.007367,5497,5662,6024,4735
64.099190,-2984,2192,-12878,-7763,-187,-1000,0.109375,0.457031,-1.566406,-0.049999,-0.039999,0.009998,-0.074707,-0.000488,-0.577148,-1.846436,0.043701,-0.283936,64099413,2,0,9,0,-0.000081,0.006383,0.250000,90.909088,5481,507,143,615,8326,7803,8090,7497,4,-0.020061,-0.061379,0.005442,6248,4916,5328,5430
64.108940,-3894,13059,-7237,-5416,-647,-1423,0.109375,0.457031,-1.566406,-0.049999,-0.039999,0.009998,-0.069092,-0.000488,-0.575439,-1.273438,-0.068604,-0.387207,64099413,2,0,9,0,-0.000081,0.006383,0.250000,90.909088,5478,316,208,516,8301,7789,8070,7500,4,-0.020159,-0.061316,0.005794,6106,5143,5365,5296
64.118713,-2646,-13015,-8515,4175,-577,1850,0.109375,0.457031,-1.566406,-0.049999,-0.039999,0.009998,-0.073486,-0.000488,-0.575928,1.068115,-0.051514,0.411865,64112999,-4,0,-6,1,-0.000024,0.006383,0.250000,76.923073,5480,-302,197,494,8346,7747,8042,7529,4,-0.020140,-0.061352,0.005520,5652,5585,5801,4880
64.128479,3632,-7710,-7269,549,-446,1126,0.109375,0.457031,-1.566406,-0.019999,-0.049999,0.029999,-0.073975,-0.001465,-0.576172,0.182861,-0.019531,0.235107,64126702,-1,0,-5,0,0.000196,0.019151,0.250000,76.923073,5494,-49,205,541,8297,7795,8057,7541,4,0.010517,-0.054892,0.025997,5874,5403,5654,5043
64.138237,-98,8431,-8115,-9838,-174,-2018,0.109375,0.457031,-1.566406,-0.019999,-0.049999,0.029999,-0.071289,-0.001465,-0.576172,-2.353027,0.046875,-0.532471,64126702,-1,0,-5,0,0.000196,0.019151,0.250000,76.923073,5493,629,166,542,8298,7834,8078,7526,4,0.010519,-0.054820,0.026141,6326,4894,5201,5549
64.148003,-2722,2501,-10518,3245,-300,359,0.109375,0.457031,-1.566406,-0.019999,-0.049999,0.029999,-0.066406,-0.001465,-0.574463,0.841309,0.016113,0.047852,64140377,-1,0,-10,1,-0.000285,0.019151,0.250000,76.923073,5491,-276,183,440,8336,7816,8039,7556,4,0.010435,-0.054707,0.026408,5645,5595,5776,4946
64.157776,-2133,-13746,-10781,7850,-767,2048,0.109375,0.457031,-1.566406,-0.019999,-0.049999,0.029999,-0.070557,-0.001709,-0.575439,1.965576,-0.097900,0.460205,64154040,2,0,9,0,0.000301,0.019151,0.250000,76.923073,5492,-558,250,502,8319,7831,8029,7564,4,0.010497,-0.054807,0.026172,5525,5812,5960,4669
64.167549,1984,-218,-16318,-6466,-250,-584,0.109375,0.457031,-1.566406,-0.019999,-0.070000,0.009998,-0.074951,-0.002197,-0.576904,-1.529785,0.028320,-0.182373,64165775,1,0,15,1,0.000066,0.006383,0.250000,90.909088,5479,430,188,598,8312,7880,8053,7515,4,0.021457,-0.070130,0.004719,6214,5008,5341,5351
64.177299,242,8448,-8546,-5479,-246,-1442,0.109375,0.457031,-1.566406,-0.019999,-0.070000,0.009998,-0.068359,-0.001709,-0.575684,-1.288574,0.029297,-0.391846,64165775,1,0,15,1,0.000066,0.006383,0.250000,90.909088,5477,331,182,509,8317,7831,8051,7512,4,0.021353,-0.070123,0.005180,6094,5117,5368,5327
64.187065,-824,2239,-8603,7964,-370,1453,0.109375,0.457031,-1.566406,-0.019999,-0.070000,0.009998,-0.067383,-0.001709,-0.574951,1.993408,-0.000977,0.314941,64179612,-1,0,1,0,-0.000090,0.006383,0.250000,76.923073,5477,-578,201,450,8372,7763,8008,7556,4,0.021305,-0.070126,0.005250,5435,5802,5968,4701
64.196838,-1500,-12578,-10668,1630,-601,1089,0.097656,0.449219,-1.566406,-0.059999,-0.059999,0.000000,-0.075195,-0.001953,-0.576904,0.447021,-0.057373,0.226074,64193141,0,-1,-16,-1,0.000635,0.000000,0.250000,76.923073,5474,-98,208,576,8304,7814,8036,7532,4,-0.017549,-0.082778,-0.006196,5839,5402,5684,4969
64.206612,1164,5199,-5949,-8620,-444,-1375,0.097656,0.449219,-1.566406,-0.059999,-0.059999,0.000000,-0.074463,-0.002197,-0.577393,-2.055420,-0.019043,-0.375488,64206765,1,0,-1,0,0.000365,0.000000,0.250000,76.923073,5473,581,189,606,8281,7791,8067,7533,4,-0.017523,-0.082796,-0.006138,6320,4892,5231,5447
64.216362,846,10616,-8007,1758,-296,-468,0.097656,0.449219,-1.566406,-0.059999,-0.059999,0.000000,-0.065186,-0.001953,-0.575439,0.478271,0.017090,-0.154053,64206765,1,0,-1,0,0.000365,0.000000,0.250000,76.923073,5470,-169,168,496,8340,7761,8061,7514,4,-0.017673,-0.082814,-0.005376,5717,5460,5718,4983
64.226135,-2462,-4566,-12831,7754,-261,2142,0.097656,0.449219,-1.566406,-0.059999,-0.059999,0.000000,-0.067383,-0.002441,-0.575439,1.942139,0.025635,0.483154,64220429,3,0,13,0,0.000126,0.000000,0.250000,76.923073,5471,-555,168,494,8299,7784,8034,7517,4,-0.017673,-0.082792,-0.005541,5444,5735,5991,4712
